{
  "name" : "Malcolm A. Smith",
  "lastName" : "Smith",
  "shortName" : "smith",
  "email" : "masmith@senate.state.ny.us",
  "additionalContact" : "",
  "imageUrl" : "http://www.nysenate.gov/files/profile-pictures/Smith-HS-024.jpg",
  "url" : "http://www.nysenate.gov/senator/malcolm-smith",
  "partyAffiliations" : [ "D", "WF" ],
  "offices" : [ {
    "name" : "Albany Office",
    "street" : "181 State Street",
    "city" : "Albany",
    "postalCode" : "12247",
    "provinceName" : "New York",
    "province" : "NY",
    "countryName" : "United States",
    "country" : "us",
    "phone" : "(518) 455-2701",
    "fax" : "(518) 455-2816",
    "otherPhone" : "",
    "additional" : "Room 808, Legislative Office Building",
    "latitude" : 42.652811,
    "longitude" : -73.758947
  }, {
    "name" : "District Office ",
    "street" : "205-20 Jamaica Ave.",
    "city" : "Hollis",
    "postalCode" : "11423",
    "provinceName" : "New York",
    "province" : "NY",
    "countryName" : "United States",
    "country" : "us",
    "phone" : "(718) 454-0162",
    "fax" : "(718) 454-0186",
    "otherPhone" : "",
    "additional" : "",
    "latitude" : 40.713498,
    "longitude" : -73.754234
  }, {
    "name" : "",
    "street" : "",
    "city" : "",
    "postalCode" : "",
    "provinceName" : "",
    "province" : "",
    "countryName" : "United States",
    "country" : "us",
    "phone" : "",
    "fax" : "",
    "otherPhone" : "",
    "additional" : "",
    "latitude" : 0.0,
    "longitude" : 0.0
  } ],
  "district" : {
    "number" : 14,
    "url" : "http://www.nysenate.gov/district/14",
    "imageUrl" : "http://www.nysenate.gov/files/sd14.jpg",
    "mapUrl" : "http://geo.nysenate.gov/maps/regular.jsp?x=850&y=595&sd=14"
  },
  "social" : {
    "twitter" : "http://twitter.com/malcolmasmith",
    "youtube" : "",
    "myspace" : "",
    "picasa" : "",
    "flickr" : "",
    "facebook" : "http://www.facebook.com/pages/Malcolm-A-Smith/74081452742"
  }
}