{
  "name" : "Joseph P. Addabbo Jr.",
  "lastName" : "Addabbo",
  "shortName" : "addabbo",
  "email" : "addabbo@senate.state.ny.us",
  "additionalContact" : "",
  "imageUrl" : "http://www.nysenate.gov/files/profile-pictures/Addabbo.SD15.jpg",
  "url" : "http://www.nysenate.gov/senator/joseph-p-addabbo-jr",
  "partyAffiliations" : [ "D" ],
  "offices" : [ {
    "name" : "Albany Office",
    "street" : "188 State Street",
    "city" : "Albany",
    "postalCode" : "12247",
    "provinceName" : "New York",
    "province" : "NY",
    "countryName" : "United States",
    "country" : "us",
    "phone" : "(518) 455-2322",
    "fax" : "(518) 426-6875",
    "otherPhone" : "",
    "additional" : "Room 613, Legislative Office Building",
    "latitude" : 42.652855,
    "longitude" : -73.759091
  }, {
    "name" : "District Office",
    "street" : "159-53 102nd Street",
    "city" : "Howard Beach",
    "postalCode" : "11414",
    "provinceName" : "New York",
    "province" : "NY",
    "countryName" : "United States",
    "country" : "us",
    "phone" : "(718) 738-1111",
    "fax" : "(718) 322-5760",
    "otherPhone" : "",
    "additional" : "",
    "latitude" : 40.658888,
    "longitude" : -73.830945
  }, {
    "name" : "Satellite Office",
    "street" : "66-85 73rd Place",
    "city" : "Middle Village",
    "postalCode" : "11379",
    "provinceName" : "New York",
    "province" : "NY",
    "countryName" : "United States",
    "country" : "us",
    "phone" : "(718) 497-1630",
    "fax" : "(718) 497-1761",
    "otherPhone" : "",
    "additional" : "",
    "latitude" : 40.712905,
    "longitude" : -73.879421
  } ],
  "district" : {
    "number" : 15,
    "url" : "http://www.nysenate.gov/district/15",
    "imageUrl" : "http://www.nysenate.gov/files/sd15.jpg",
    "mapUrl" : "http://geo.nysenate.gov/maps/regular.jsp?x=850&y=595&sd=15"
  },
  "social" : {
    "twitter" : "",
    "youtube" : "",
    "myspace" : "",
    "picasa" : "",
    "flickr" : "",
    "facebook" : "http://www.facebook.com/pages/Senator-Joe-Addabbo/157310354545?ref=search&sid=567176665.3736433734..1"
  }
}
